{
  "totalcount": 31,
  "departments": [
    {
      "creditcardtypes": [ "DS", "MC", "VI" ],
      "timezoneoffset": -5,
      "singleappointmentcontractmax": "3000",
      "providerlist": [ "68", "69", "75", "79", "86", "21", "22", "23", "25", "24", "26", "71", "83", "88", "96", "67", "115", "101", "98", "97", "103", "89", "116", "104", "102", "126", "130", "77", "118", "153", "186", "193", "207", "209", "223", "233", "259", "260", "267", "272", "268", "297", "47", "117", "99", "145", "178", "198", "158", "245", "241", "266", "265", "292", "273", "111", "105", "87", "129", "141", "147", "171", "179", "218", "240", "132", "131", "142", "146", "161", "181", "183", "203", "220", "235", "238", "121", "134", "155", "160", "172", "168", "214", "269", "107", "144", "148", "159", "170", "188", "212", "230", "242", "243", "227", "274", "282", "340", "337", "343", "366", "378", "354", "336", "355", "367", "360", "353", "410", "281", "320", "339", "364", "377", "358", "327", "338", "139", "305", "365", "315", "319", "356", "373", "387", "391", "316", "352", "247", "166", "151", "94", "347" ],
      "state": "GA",
      "placeofservicefacility": false,
      "latitude": "34.25597",
      "departmentid": "1",
      "address": "8762 STONERIDGE CT",
      "placeofservicetypeid": "11",
      "longitude": "-85.17026",
      "clinicals": "ON",
      "timezone": -4,
      "name": "MAIN ST (HUB)",
      "patientdepartmentname": "Rome Office",
      "chartsharinggroupid": "42",
      "placeofservicetypename": "OFFICE",
      "zip": "30417",
      "timezonename": "US\/Eastern",
      "communicatorbrandid": "1",
      "medicationhistoryconsent": false,
      "ishospitaldepartment": false,
      "providergroupid": "1",
      "portalurl": "www.kenneth.net",
      "city": "CLAXTON",
      "servicedepartment": true,
      "oneyearcontractmax": "1500",
      "fax": "(888) 555 1832",
      "providergroupname": "Downtown Health Group",
      "doesnotobservedst": false,
      "phone": "(555) 916-7897",
      "ecommercecreditcardtypes": [ "DS", "MC", "VI" ]
    },
    {
      "creditcardtypes": [ "DS", "MC", "VI" ],
      "timezoneoffset": -5,
      "singleappointmentcontractmax": "3000",
      "providerlist": [ "26", "71", "23", "79", "88", "68", "75", "86", "67", "101", "21", "115", "103", "100", "90", "22", "25", "102", "110", "116", "83" ],
      "state": "GA",
      "placeofservicefacility": false,
      "latitude": "34.1649",
      "departmentid": "21",
      "address": "8762 STONERIDGE CT",
      "placeofservicetypeid": "11",
      "longitude": "-84.79669",
      "clinicals": "ON",
      "timezone": -4,
      "name": "BLUE HILL (HUB)",
      "patientdepartmentname": "Cartersville Office",
      "chartsharinggroupid": "42",
      "placeofservicetypename": "OFFICE",
      "zip": "30824-1111",
      "timezonename": "US\/Eastern",
      "communicatorbrandid": "1",
      "medicationhistoryconsent": false,
      "ishospitaldepartment": false,
      "providergroupid": "1",
      "portalurl": "www.kenneth.net",
      "city": "THOMSON",
      "servicedepartment": true,
      "oneyearcontractmax": "1500",
      "fax": "(888) 555 1832",
      "providergroupname": "Downtown Health Group",
      "doesnotobservedst": false,
      "phone": "(555) 225-6052",
      "ecommercecreditcardtypes": [ "DS", "MC", "VI" ]
    },
    {
      "creditcardtypes": [ "DS", "MC", "VI" ],
      "timezoneoffset": -5,
      "singleappointmentcontractmax": "3000",
      "providerlist": [ "23", "86" ],
      "state": "MA",
      "placeofservicefacility": false,
      "latitude": "0",
      "departmentid": "42",
      "address": "8762 STONERIDGE CT",
      "longitude": "0",
      "clinicals": "ON",
      "timezone": -4,
      "name": "SEA BREEZE (SPOKE)",
      "patientdepartmentname": "SEA BREEZE (SPOKE)",
      "chartsharinggroupid": "42",
      "zip": "02725",
      "timezonename": "US\/Eastern",
      "communicatorbrandid": "1",
      "medicationhistoryconsent": false,
      "ishospitaldepartment": false,
      "providergroupid": "1",
      "portalurl": "www.kenneth.net",
      "city": "SOMERSET",
      "servicedepartment": false,
      "oneyearcontractmax": "1500",
      "fax": "(888) 555 1832",
      "providergroupname": "Downtown Health Group",
      "doesnotobservedst": false,
      "phone": "(555) 069-4174",
      "ecommercecreditcardtypes": [ "DS", "MC", "VI" ]
    },
    {
      "creditcardtypes": [ "DS", "MC", "VI" ],
      "timezoneoffset": -5,
      "singleappointmentcontractmax": "3000",
      "providerlist": [ "47", "79" ],
      "state": "MA",
      "placeofservicefacility": false,
      "departmentid": "62",
      "address": "8762 STONERIDGE CT",
      "placeofservicetypeid": "11",
      "clinicals": "ON",
      "timezone": -4,
      "name": "NORTH CENTRAL (SPOKE)",
      "patientdepartmentname": "Blackstone patient-facing name (athenaNet)",
      "chartsharinggroupid": "43",
      "placeofservicetypename": "OFFICE",
      "zip": "01923",
      "timezonename": "US\/Eastern",
      "communicatorbrandid": "21",
      "medicationhistoryconsent": false,
      "ishospitaldepartment": false,
      "providergroupid": "2",
      "portalurl": "www.kenneth.net",
      "city": "DANVERS",
      "servicedepartment": true,
      "oneyearcontractmax": "1500",
      "fax": "(888) 555 1832",
      "providergroupname": "Family Specialists",
      "doesnotobservedst": false,
      "phone": "(555) 314-0397"
    },
    {
      "creditcardtypes": [ "DS", "MC", "VI" ],
      "timezoneoffset": -5,
      "singleappointmentcontractmax": "3000",
      "providerlist": [ "26", "67", "100", "71", "103", "106", "105", "107", "118", "102" ],
      "state": "MA",
      "placeofservicefacility": false,
      "departmentid": "82",
      "address": "8762 STONERIDGE CT",
      "placeofservicetypeid": "11",
      "clinicals": "ON",
      "timezone": -4,
      "name": "ST FRANCIS HOSP -ER",
      "patientdepartmentname": "ST FRANCIS HOSP -ER",
      "chartsharinggroupid": "41",
      "placeofservicetypename": "OFFICE",
      "clinicalproviderfax": "(701) 712-4273",
      "zip": "01807",
      "timezonename": "US\/Eastern",
      "communicatorbrandid": "1",
      "medicationhistoryconsent": false,
      "ishospitaldepartment": false,
      "providergroupid": "22",
      "portalurl": "www.kenneth.net",
      "city": "WOBURN",
      "servicedepartment": true,
      "oneyearcontractmax": "1500",
      "fax": "(888) 555 1832",
      "providergroupname": "Pediatrics Group",
      "doesnotobservedst": false,
      "phone": "(555) 138-5581"
    },
    {
      "creditcardtypes": [ "DS", "MC", "VI" ],
      "timezoneoffset": -5,
      "singleappointmentcontractmax": "3000",
      "providerlist": [ "68", "69", "71", "79", "26", "103", "101", "77", "25", "102", "100", "23", "86" ],
      "state": "CO",
      "placeofservicefacility": true,
      "departmentid": "102",
      "address": "8762 STONERIDGE CT",
      "placeofservicetypeid": "22",
      "clinicals": "ON",
      "timezone": -4,
      "name": "ST FRANCIS HOSP -IN PT",
      "patientdepartmentname": "Cardiology Consults",
      "chartsharinggroupid": "42",
      "placeofservicetypename": "ON CAMPUS-OUTPATIENT HOSPITAL",
      "zip": "81428",
      "timezonename": "US\/Eastern",
      "communicatorbrandid": "1",
      "medicationhistoryconsent": false,
      "ishospitaldepartment": false,
      "providergroupid": "1",
      "portalurl": "www.kenneth.net",
      "city": "PAONIA",
      "servicedepartment": true,
      "oneyearcontractmax": "1500",
      "fax": "(888) 555 1832",
      "providergroupname": "Downtown Health Group",
      "doesnotobservedst": false,
      "phone": "(555) 063-8553",
      "address2": "100 MAIN ST",
      "ecommercecreditcardtypes": [ "DS", "MC", "VI" ]
    },
    {
      "creditcardtypes": [ "DS", "MC", "VI" ],
      "timezoneoffset": -5,
      "singleappointmentcontractmax": "3000",
      "providerlist": [ "79", "26", "102", "86" ],
      "state": "MA",
      "placeofservicefacility": false,
      "latitude": "0",
      "departmentid": "122",
      "address": "8762 STONERIDGE CT",
      "longitude": "0",
      "clinicals": "ON",
      "timezone": -4,
      "name": "MED.DIAG.IMAGING",
      "patientdepartmentname": "MED.DIAG.IMAGING",
      "chartsharinggroupid": "42",
      "timezonename": "US\/Eastern",
      "communicatorbrandid": "1",
      "medicationhistoryconsent": false,
      "ishospitaldepartment": false,
      "providergroupid": "1",
      "portalurl": "www.kenneth.net",
      "city": "",
      "servicedepartment": false,
      "oneyearcontractmax": "1500",
      "fax": "(888) 555 1832",
      "providergroupname": "Downtown Health Group",
      "doesnotobservedst": false,
      "phone": "(555) 580-7943",
      "ecommercecreditcardtypes": [ "DS", "MC", "VI" ]
    },
    {
      "creditcardtypes": [ "DS", "MC", "VI" ],
      "timezoneoffset": -5,
      "singleappointmentcontractmax": "3000",
      "providerlist": [ "75", "47" ],
      "state": "CT",
      "placeofservicefacility": false,
      "departmentid": "142",
      "address": "8762 STONERIDGE CT",
      "placeofservicetypeid": "11",
      "clinicals": "ON",
      "timezone": -4,
      "name": "LANGLEY HOSPITAL-INPT",
      "patientdepartmentname": "LANGLEY HOSPITAL-INPT",
      "chartsharinggroupid": "43",
      "placeofservicetypename": "OFFICE",
      "zip": "06066",
      "timezonename": "US\/Eastern",
      "communicatorbrandid": "21",
      "medicationhistoryconsent": false,
      "ishospitaldepartment": false,
      "providergroupid": "2",
      "portalurl": "www.kenneth.net",
      "city": "VERNON ROCKVILLE",
      "servicedepartment": true,
      "oneyearcontractmax": "1500",
      "fax": "(888) 555 1832",
      "providergroupname": "Family Specialists",
      "doesnotobservedst": false,
      "phone": "(555) 625-9608"
    },
    {
      "creditcardtypes": [ "DS", "MC", "VI" ],
      "timezoneoffset": -5,
      "singleappointmentcontractmax": "3000",
      "providerlist": [ "80", "117", "108" ],
      "state": "MA",
      "placeofservicefacility": false,
      "departmentid": "143",
      "address": "8762 STONERIDGE CT",
      "clinicals": "ON",
      "timezone": -4,
      "name": "CENTRAL CITY HEALTH",
      "patientdepartmentname": "CENTRAL CITY HEALTH",
      "chartsharinggroupid": "41",
      "zip": "01059",
      "timezonename": "US\/Eastern",
      "communicatorbrandid": "21",
      "medicationhistoryconsent": false,
      "ishospitaldepartment": false,
      "providergroupid": "42",
      "portalurl": "www.kenneth.net",
      "city": "NORTH AMHERST",
      "servicedepartment": true,
      "oneyearcontractmax": "1500",
      "fax": "(888) 555 1832",
      "providergroupname": "Central Clinic",
      "doesnotobservedst": false,
      "phone": "(555) 606-8882"
    },
    {
      "creditcardtypes": [ "DS", "MC", "VI" ],
      "timezoneoffset": -5,
      "singleappointmentcontractmax": "3000",
      "providerlist": [ "71", "79", "69", "23", "68", "22", "24", "94", "88", "26", "25", "21", "87", "86", "67", "75", "83", "77", "262" ],
      "state": "ME",
      "placeofservicefacility": true,
      "departmentid": "144",
      "address": "8762 STONERIDGE CT",
      "placeofservicetypeid": "23",
      "clinicals": "ON",
      "timezone": -4,
      "name": "CENTRAL CITY EMER RM",
      "patientdepartmentname": "CENTRAL CITY EMER RM",
      "chartsharinggroupid": "42",
      "placeofservicetypename": "EMERGENCY ROOM",
      "zip": "04220-0000",
      "timezonename": "US\/Eastern",
      "communicatorbrandid": "1",
      "medicationhistoryconsent": false,
      "ishospitaldepartment": false,
      "providergroupid": "1",
      "portalurl": "www.kenneth.net",
      "city": "BUCKFIELD",
      "servicedepartment": true,
      "oneyearcontractmax": "1500",
      "fax": "(888) 555 1832",
      "providergroupname": "Downtown Health Group",
      "doesnotobservedst": false,
      "phone": "(555) 609-1105",
      "ecommercecreditcardtypes": [ "DS", "MC", "VI" ]
    },
    {
      "creditcardtypes": [ "DS", "MC", "VI" ],
      "timezoneoffset": -5,
      "singleappointmentcontractmax": "3000",
      "providerlist": [ "68", "79", "21", "87", "75", "71", "67", "80", "22", "86", "23", "115", "25", "101", "110", "100", "26", "102", "105", "88", "69", "103", "109", "77", "111" ],
      "state": "ME",
      "placeofservicefacility": false,
      "latitude": "44.41919",
      "departmentid": "145",
      "address": "8762 STONERIDGE CT",
      "placeofservicetypeid": "11",
      "longitude": "-69.02124",
      "clinicals": "ON",
      "timezone": -4,
      "name": "CENTRAL CITY INPT",
      "patientdepartmentname": "Belfast Primary Care",
      "chartsharinggroupid": "42",
      "placeofservicetypename": "OFFICE",
      "zip": "04097",
      "timezonename": "US\/Eastern",
      "communicatorbrandid": "1",
      "medicationhistoryconsent": false,
      "ishospitaldepartment": false,
      "providergroupid": "1",
      "portalurl": "www.kenneth.net",
      "city": "NORTH YARMOUTH",
      "servicedepartment": true,
      "oneyearcontractmax": "1500",
      "fax": "(888) 555 1832",
      "providergroupname": "Downtown Health Group",
      "doesnotobservedst": false,
      "phone": "(555) 482-2453",
      "ecommercecreditcardtypes": [ "DS", "MC", "VI" ]
    },
    {
      "creditcardtypes": [ "DS", "MC", "VI" ],
      "timezoneoffset": -5,
      "singleappointmentcontractmax": "3000",
      "providerlist": [],
      "state": "ME",
      "placeofservicefacility": false,
      "departmentid": "147",
      "address": "8762 STONERIDGE CT",
      "clinicals": "ON",
      "timezone": -4,
      "name": "ST FRANCIS HOSP -OUT PT",
      "patientdepartmentname": "Ohio Health Primary Care Pickerington Office 1234",
      "chartsharinggroupid": "41",
      "zip": "04108",
      "timezonename": "US\/Eastern",
      "communicatorbrandid": "21",
      "medicationhistoryconsent": false,
      "ishospitaldepartment": false,
      "providergroupid": "42",
      "portalurl": "www.kenneth.net",
      "city": "PEAKS ISLAND",
      "servicedepartment": true,
      "oneyearcontractmax": "1500",
      "fax": "(888) 555 1832",
      "providergroupname": "Central Clinic",
      "doesnotobservedst": false,
      "phone": "(555) 679-8106"
    },
    {
      "creditcardtypes": [ "DS", "MC", "VI" ],
      "timezoneoffset": -5,
      "singleappointmentcontractmax": "3000",
      "providerlist": [ "71", "67", "111", "68", "21", "86", "103" ],
      "state": "NY",
      "placeofservicefacility": false,
      "latitude": "44.27192",
      "departmentid": "148",
      "address": "8762 STONERIDGE CT",
      "placeofservicetypeid": "11",
      "longitude": "-69.37563",
      "clinicals": "ON",
      "timezone": -4,
      "name": "CENTRAL CITY SURGERY",
      "patientdepartmentname": "Portal Test",
      "chartsharinggroupid": "42",
      "placeofservicetypename": "OFFICE",
      "zip": "10199",
      "timezonename": "US\/Eastern",
      "communicatorbrandid": "1",
      "medicationhistoryconsent": false,
      "ishospitaldepartment": false,
      "providergroupid": "1",
      "portalurl": "www.kenneth.net",
      "city": "NEW YORK",
      "servicedepartment": true,
      "oneyearcontractmax": "1500",
      "fax": "(888) 555 1832",
      "providergroupname": "Downtown Health Group",
      "doesnotobservedst": false,
      "phone": "(555) 759-3337",
      "ecommercecreditcardtypes": [ "DS", "MC", "VI" ]
    },
    {
      "creditcardtypes": [ "DS", "MC", "VI" ],
      "timezoneoffset": -5,
      "singleappointmentcontractmax": "3000",
      "providerlist": [ "22", "88", "99", "71", "79" ],
      "state": "MA",
      "placeofservicefacility": false,
      "departmentid": "149",
      "address": "8762 STONERIDGE CT",
      "clinicals": "ON",
      "timezone": -4,
      "name": "NORTH CENTRAL CITY",
      "patientdepartmentname": "NORTH CENTRAL CITY",
      "chartsharinggroupid": "81",
      "zip": "01546",
      "timezonename": "US\/Eastern",
      "communicatorbrandid": "1",
      "medicationhistoryconsent": false,
      "ishospitaldepartment": false,
      "providergroupid": "1",
      "portalurl": "www.kenneth.net",
      "city": "SHREWSBURY",
      "servicedepartment": true,
      "oneyearcontractmax": "1500",
      "fax": "(888) 555 1832",
      "providergroupname": "Downtown Health Group",
      "doesnotobservedst": false,
      "phone": "(555) 905-9824",
      "ecommercecreditcardtypes": [ "DS", "MC", "VI" ]
    },
    {
      "creditcardtypes": [ "DS", "MC", "VI" ],
      "timezoneoffset": -5,
      "singleappointmentcontractmax": "3000",
      "providerlist": [ "22", "88", "96", "83", "79", "71", "97", "98", "111", "109", "75", "108", "87", "67", "115", "104", "68" ],
      "state": "ME",
      "placeofservicefacility": false,
      "latitude": "44.41919",
      "departmentid": "150",
      "address": "8762 STONERIDGE CT",
      "placeofservicetypeid": "11",
      "longitude": "-69.02124",
      "clinicals": "ON",
      "timezone": -4,
      "name": "ST FRANCIS SURGERY",
      "patientdepartmentname": "7 Hills' & Co. Department",
      "chartsharinggroupid": "42",
      "placeofservicetypename": "OFFICE",
      "zip": "04004",
      "timezonename": "US\/Eastern",
      "communicatorbrandid": "1",
      "medicationhistoryconsent": false,
      "ishospitaldepartment": false,
      "providergroupid": "1",
      "portalurl": "www.kenneth.net",
      "city": "BAR MILLS",
      "servicedepartment": true,
      "oneyearcontractmax": "1500",
      "fax": "(888) 555 1832",
      "providergroupname": "Downtown Health Group",
      "doesnotobservedst": false,
      "phone": "(555) 829-4068",
      "ecommercecreditcardtypes": [ "DS", "MC", "VI" ]
    },
    {
      "creditcardtypes": [ "DS", "MC", "VI" ],
      "timezoneoffset": -5,
      "singleappointmentcontractmax": "3000",
      "providerlist": [],
      "state": "MA",
      "placeofservicefacility": false,
      "departmentid": "155",
      "address": "8762 STONERIDGE CT",
      "clinicals": "OFF",
      "timezone": -4,
      "name": "MD CALL",
      "patientdepartmentname": "MD CALL",
      "chartsharinggroupid": "41",
      "zip": "01906-0123",
      "timezonename": "US\/Eastern",
      "communicatorbrandid": "42",
      "medicationhistoryconsent": false,
      "ishospitaldepartment": false,
      "providergroupid": "62",
      "portalurl": "www.kenneth.net",
      "city": "SAUGUS",
      "servicedepartment": true,
      "oneyearcontractmax": "1500",
      "fax": "(888) 555 1832",
      "providergroupname": "Regional Clinic",
      "doesnotobservedst": false,
      "phone": "(555) 056-5065"
    },
    {
      "creditcardtypes": [ "DS", "MC", "VI" ],
      "timezoneoffset": -5,
      "singleappointmentcontractmax": "3000",
      "providerlist": [ "90", "89", "67", "94", "93", "71", "92", "91", "22", "86", "115", "122", "83", "120" ],
      "state": "MA",
      "placeofservicefacility": false,
      "latitude": "33.12390285",
      "departmentid": "157",
      "address": "8762 STONERIDGE CT",
      "placeofservicetypeid": "11",
      "longitude": "-84.29847983",
      "clinicals": "ON",
      "timezone": -4,
      "name": "CHERRY STREET",
      "patientdepartmentname": "CommOpsDevTest",
      "chartsharinggroupid": "42",
      "placeofservicetypename": "OFFICE",
      "zip": "02106",
      "timezonename": "US\/Eastern",
      "communicatorbrandid": "1",
      "medicationhistoryconsent": false,
      "ishospitaldepartment": false,
      "providergroupid": "1",
      "portalurl": "www.kenneth.net",
      "city": "BOSTON",
      "servicedepartment": true,
      "oneyearcontractmax": "1500",
      "fax": "(888) 555 1832",
      "providergroupname": "Downtown Health Group",
      "doesnotobservedst": false,
      "phone": "(555) 940-9531",
      "ecommercecreditcardtypes": [ "DS", "MC", "VI" ]
    },
    {
      "creditcardtypes": [ "DS", "MC", "VI" ],
      "timezoneoffset": -5,
      "singleappointmentcontractmax": "3000",
      "providerlist": [ "105", "104", "103", "102", "118", "106", "107" ],
      "state": "MA",
      "placeofservicefacility": false,
      "latitude": "4237092.99",
      "departmentid": "159",
      "address": "8762 STONERIDGE CT",
      "longitude": "-7118283.21",
      "clinicals": "OFF",
      "timezone": -4,
      "name": "ST. ELIZABETH HOSP -IN PT",
      "patientdepartmentname": "ST. ELIZABETH HOSP -IN PT",
      "chartsharinggroupid": "41",
      "zip": "01460",
      "timezonename": "US\/Eastern",
      "communicatorbrandid": "1",
      "medicationhistoryconsent": false,
      "ishospitaldepartment": false,
      "providergroupid": "22",
      "portalurl": "www.kenneth.net",
      "city": "LITTLETON",
      "servicedepartment": true,
      "oneyearcontractmax": "1500",
      "fax": "(888) 555 1832",
      "providergroupname": "Pediatrics Group",
      "doesnotobservedst": false,
      "phone": "(555) 607-3670"
    },
    {
      "creditcardtypes": [ "DS", "MC", "VI" ],
      "timezoneoffset": -5,
      "singleappointmentcontractmax": "3000",
      "providerlist": [ "103", "105", "104", "96", "102", "106", "107" ],
      "state": "MA",
      "placeofservicefacility": false,
      "latitude": "4237092.99",
      "departmentid": "160",
      "address": "8762 STONERIDGE CT",
      "longitude": "-7118283.21",
      "clinicals": "OFF",
      "timezone": -4,
      "name": "ST. JOSEPH HOSP IN PT",
      "patientdepartmentname": "ST. JOSEPH HOSP IN PT",
      "chartsharinggroupid": "41",
      "zip": "01061",
      "timezonename": "US\/Eastern",
      "communicatorbrandid": "1",
      "medicationhistoryconsent": false,
      "ishospitaldepartment": false,
      "providergroupid": "22",
      "portalurl": "www.kenneth.net",
      "city": "NORTHAMPTON",
      "servicedepartment": true,
      "oneyearcontractmax": "1500",
      "fax": "(888) 555 1832",
      "providergroupname": "Pediatrics Group",
      "doesnotobservedst": false,
      "phone": "(555) 901-9861"
    },
    {
      "creditcardtypes": [ "DS", "MC", "VI" ],
      "timezoneoffset": -5,
      "singleappointmentcontractmax": "3000",
      "providerlist": [ "108", "83" ],
      "state": "MA",
      "placeofservicefacility": false,
      "latitude": "4236331.12",
      "departmentid": "161",
      "address": "8762 STONERIDGE CT",
      "longitude": "-7116709.07",
      "clinicals": "OFF",
      "timezone": -4,
      "name": "ST JOSEPH HOSPITAL -ER",
      "patientdepartmentname": "ST JOSEPH HOSPITAL -ER",
      "chartsharinggroupid": "42",
      "zip": "01007",
      "timezonename": "US\/Eastern",
      "communicatorbrandid": "1",
      "medicationhistoryconsent": false,
      "ishospitaldepartment": false,
      "providergroupid": "1",
      "portalurl": "www.kenneth.net",
      "city": "BELCHERTOWN",
      "servicedepartment": true,
      "oneyearcontractmax": "1500",
      "fax": "(888) 555 1832",
      "providergroupname": "Downtown Health Group",
      "doesnotobservedst": false,
      "phone": "(555) 771-2167",
      "ecommercecreditcardtypes": [ "DS", "MC", "VI" ]
    },
    {
      "creditcardtypes": [ "DS", "MC", "VI" ],
      "timezoneoffset": -5,
      "singleappointmentcontractmax": "3000",
      "providerlist": [ "86", "75", "79", "105" ],
      "state": "NY",
      "placeofservicefacility": false,
      "departmentid": "162",
      "address": "8762 STONERIDGE CT",
      "placeofservicetypeid": "11",
      "clinicals": "OFF",
      "timezone": -4,
      "name": "MERCY HOSPITAL",
      "patientdepartmentname": "Main Office",
      "chartsharinggroupid": "42",
      "placeofservicetypename": "OFFICE",
      "zip": "12020",
      "timezonename": "US\/Eastern",
      "communicatorbrandid": "1",
      "medicationhistoryconsent": false,
      "ishospitaldepartment": false,
      "providergroupid": "1",
      "portalurl": "www.kenneth.net",
      "city": "BALLSTON SPA",
      "servicedepartment": true,
      "oneyearcontractmax": "1500",
      "fax": "(888) 555 1832",
      "providergroupname": "Downtown Health Group",
      "doesnotobservedst": false,
      "phone": "(555) 946-3582",
      "ecommercecreditcardtypes": [ "DS", "MC", "VI" ]
    },
    {
      "creditcardtypes": [ "DS", "MC", "VI" ],
      "timezoneoffset": -5,
      "singleappointmentcontractmax": "3000",
      "providerlist": [ "88", "22", "109", "96", "23", "67", "79" ],
      "state": "ME",
      "placeofservicefacility": false,
      "departmentid": "163",
      "address": "8762 STONERIDGE CT",
      "clinicals": "OFF",
      "timezone": -4,
      "name": "SOUTHERN AVE",
      "patientdepartmentname": "SOUTHERN AVE",
      "chartsharinggroupid": "42",
      "zip": "04431",
      "timezonename": "US\/Eastern",
      "communicatorbrandid": "1",
      "medicationhistoryconsent": false,
      "ishospitaldepartment": false,
      "providergroupid": "1",
      "portalurl": "www.kenneth.net",
      "city": "EAST ORLAND",
      "servicedepartment": true,
      "oneyearcontractmax": "1500",
      "fax": "(888) 555 1832",
      "providergroupname": "Downtown Health Group",
      "doesnotobservedst": false,
      "phone": "(555) 272-7559",
      "ecommercecreditcardtypes": [ "DS", "MC", "VI" ]
    },
    {
      "creditcardtypes": [ "DS", "MC", "VI" ],
      "timezoneoffset": -5,
      "singleappointmentcontractmax": "3000",
      "providerlist": [ "47", "104", "105" ],
      "state": "ME",
      "placeofservicefacility": false,
      "departmentid": "164",
      "address": "8762 STONERIDGE CT",
      "placeofservicetypeid": "11",
      "clinicals": "OFF",
      "timezone": -4,
      "name": "WEST HILL HOSPITAL",
      "patientdepartmentname": "WEST HILL HOSPITAL",
      "chartsharinggroupid": "43",
      "placeofservicetypename": "OFFICE",
      "zip": "04406",
      "timezonename": "US\/Eastern",
      "communicatorbrandid": "21",
      "medicationhistoryconsent": false,
      "ishospitaldepartment": false,
      "providergroupid": "2",
      "portalurl": "www.kenneth.net",
      "city": "ABBOT",
      "servicedepartment": true,
      "oneyearcontractmax": "1500",
      "fax": "(888) 555 1832",
      "providergroupname": "Family Specialists",
      "doesnotobservedst": false,
      "phone": "(555) 586-9114"
    },
    {
      "creditcardtypes": [ "DS", "MC", "VI" ],
      "timezoneoffset": -5,
      "singleappointmentcontractmax": "3000",
      "providerlist": [ "118" ],
      "state": "MA",
      "placeofservicefacility": false,
      "departmentid": "165",
      "address": "8762 STONERIDGE CT",
      "clinicals": "OFF",
      "timezone": -4,
      "name": "autoContract - Pediatrics Group",
      "patientdepartmentname": "autoContract - Pediatrics Group",
      "chartsharinggroupid": "41",
      "zip": "47111-0000",
      "timezonename": "US\/Eastern",
      "communicatorbrandid": "1",
      "medicationhistoryconsent": false,
      "ishospitaldepartment": false,
      "providergroupid": "22",
      "portalurl": "www.kenneth.net",
      "city": "CHARLESTOWN",
      "servicedepartment": false,
      "oneyearcontractmax": "1500",
      "providergroupname": "Pediatrics Group",
      "doesnotobservedst": false,
      "address2": "8762 STONERIDGE CT"
    },
    {
      "creditcardtypes": [ "DS", "MC", "VI" ],
      "timezoneoffset": -5,
      "singleappointmentcontractmax": "3000",
      "providerlist": [ "94", "118" ],
      "state": "MA",
      "placeofservicefacility": false,
      "departmentid": "166",
      "address": "8762 STONERIDGE CT",
      "clinicals": "OFF",
      "timezone": -4,
      "name": "autoContract - Family Specialists",
      "patientdepartmentname": "autoContract - Family Specialists",
      "chartsharinggroupid": "43",
      "zip": "47111-0000",
      "timezonename": "US\/Eastern",
      "communicatorbrandid": "21",
      "medicationhistoryconsent": false,
      "ishospitaldepartment": false,
      "providergroupid": "2",
      "portalurl": "www.kenneth.net",
      "city": "CHARLESTOWN",
      "servicedepartment": false,
      "oneyearcontractmax": "1500",
      "providergroupname": "Family Specialists",
      "doesnotobservedst": false,
      "address2": "8762 STONERIDGE CT"
    },
    {
      "creditcardtypes": [ "DS", "MC", "VI" ],
      "timezoneoffset": -5,
      "singleappointmentcontractmax": "3000",
      "providerlist": [ "115" ],
      "state": "MA",
      "placeofservicefacility": false,
      "departmentid": "167",
      "address": "8762 STONERIDGE CT",
      "clinicals": "OFF",
      "timezone": -4,
      "name": "autoContract - Regional Clinic",
      "patientdepartmentname": "autoContract - Regional Clinic",
      "chartsharinggroupid": "41",
      "zip": "47111-0000",
      "timezonename": "US\/Eastern",
      "communicatorbrandid": "42",
      "medicationhistoryconsent": false,
      "ishospitaldepartment": false,
      "providergroupid": "62",
      "portalurl": "www.kenneth.net",
      "city": "CHARLESTOWN",
      "servicedepartment": false,
      "oneyearcontractmax": "1500",
      "providergroupname": "Regional Clinic",
      "doesnotobservedst": false,
      "address2": "8762 STONERIDGE CT"
    },
    {
      "medicationhistoryconsent": false,
      "timezoneoffset": -5,
      "ishospitaldepartment": false,
      "providergroupid": "1",
      "providerlist": [],
      "state": "MA",
      "portalurl": "www.kenneth.net",
      "city": "WATERTOWN",
      "placeofservicefacility": false,
      "servicedepartment": true,
      "providergroupname": "Downtown Health Group",
      "doesnotobservedst": false,
      "departmentid": "168",
      "clinicals": "OFF",
      "timezone": -4,
      "patientdepartmentname": "Hendrix",
      "chartsharinggroupid": "42",
      "name": "Hendrix Test Department",
      "phone": "(654) 843-2154",
      "ecommercecreditcardtypes": [ "DS", "MC", "VI" ],
      "zip": "02472-2368",
      "timezonename": "US\/Eastern",
      "communicatorbrandid": "1"
    },
    {
      "medicationhistoryconsent": false,
      "timezoneoffset": -5,
      "ishospitaldepartment": false,
      "providergroupid": "22",
      "providerlist": [],
      "state": "",
      "portalurl": "www.kenneth.net",
      "city": "",
      "placeofservicefacility": false,
      "servicedepartment": false,
      "providergroupname": "Pediatrics Group",
      "doesnotobservedst": false,
      "departmentid": "169",
      "clinicals": "OFF",
      "timezone": -4,
      "patientdepartmentname": "autoECommerce - Pediatrics Group",
      "chartsharinggroupid": "41",
      "name": "autoECommerce - Pediatrics Group",
      "zip": "00000-0000",
      "timezonename": "US\/Eastern",
      "communicatorbrandid": "1"
    },
    {
      "medicationhistoryconsent": false,
      "timezoneoffset": -5,
      "ishospitaldepartment": false,
      "providergroupid": "2",
      "providerlist": [],
      "state": "",
      "portalurl": "www.kenneth.net",
      "city": "",
      "placeofservicefacility": false,
      "servicedepartment": false,
      "providergroupname": "Family Specialists",
      "doesnotobservedst": false,
      "departmentid": "170",
      "clinicals": "OFF",
      "timezone": -4,
      "patientdepartmentname": "autoECommerce - Family Specialists",
      "chartsharinggroupid": "43",
      "name": "autoECommerce - Family Specialists",
      "zip": "00000-0000",
      "timezonename": "US\/Eastern",
      "communicatorbrandid": "21"
    },
    {
      "medicationhistoryconsent": false,
      "timezoneoffset": -5,
      "ishospitaldepartment": false,
      "providergroupid": "62",
      "providerlist": [],
      "state": "",
      "portalurl": "www.kenneth.net",
      "city": "",
      "placeofservicefacility": false,
      "servicedepartment": false,
      "providergroupname": "Regional Clinic",
      "doesnotobservedst": false,
      "departmentid": "171",
      "clinicals": "OFF",
      "timezone": -4,
      "patientdepartmentname": "autoECommerce - Regional Clinic",
      "chartsharinggroupid": "41",
      "name": "autoECommerce - Regional Clinic",
      "zip": "00000-0000",
      "timezonename": "US\/Eastern",
      "communicatorbrandid": "42"
    },
    {
      "medicationhistoryconsent": false,
      "timezoneoffset": -8,
      "ishospitaldepartment": false,
      "providergroupid": "1",
      "providerlist": [ "262" ],
      "state": "CA",
      "portalurl": "www.kenneth.net",
      "city": "SANTA MONICA",
      "placeofservicefacility": true,
      "servicedepartment": true,
      "fax": "(888) 555 1832",
      "providergroupname": "Downtown Health Group",
      "doesnotobservedst": false,
      "departmentid": "172",
      "address": "1607 Appian Way",
      "placeofservicetypeid": "23",
      "clinicals": "OFF",
      "timezone": -7,
      "patientdepartmentname": "7 Hills Medical Group - West Coast ER",
      "chartsharinggroupid": "42",
      "name": "WEST COAST CARE ER",
      "placeofservicetypename": "EMERGENCY ROOM",
      "phone": "(310) 458-5555",
      "ecommercecreditcardtypes": [ "DS", "MC", "VI" ],
      "zip": "90401-1000",
      "timezonename": "America\/Los_Angeles",
      "communicatorbrandid": "1"
    }
  ]
}